"","city","n","country","county","lat","long"
"1","Lincoln",412,"United Kingdom","Lincolnshire",53.2336301,-0.5392172
"2","Boston",106,"United Kingdom","Lincolnshire",52.9770408,-0.0239836
"3","Lincolnshire",76,"United Kingdom","Lincolnshire",53.5841303,-0.6649323
"4","Stamford",50,"United Kingdom","Lincolnshire",52.6520552,-0.4804363
"5","Grantham",39,"United Kingdom","Lincolnshire",52.9133829,-0.6426582
"6","Grimsby",39,"United Kingdom","Lincolnshire",53.5677371,-0.0736289
"7","Louth",34,"United Kingdom","Lincolnshire",53.3675163,-0.0022381
"8","Barton upon Humber",27,"United Kingdom","Lincolnshire",53.67357325,-0.442710043888241
"9","Holland",26,"United Kingdom","Lincolnshire",52.8127195,-0.00126279725762607
"10","Lindsey",23,"United Kingdom","Lincolnshire",53.2680103,0.0127757730434089
"11","Swineshead",22,"United Kingdom","Lincolnshire",52.9453585,-0.1583028
"12","Whaplode",21,"United Kingdom","Lincolnshire",52.7994628,-0.0360638
"13","Kesteven",19,"United Kingdom","Lincolnshire",52.8502665,-0.495192474160971
"14","Long Sutton",18,"United Kingdom","Lincolnshire",52.7862774,0.1201796
"15","Sleaford",18,"United Kingdom","Lincolnshire",52.9984193,-0.4094529
"16","Spalding",18,"United Kingdom","Lincolnshire",52.7874935,-0.1516271
"17","Gainsborough",17,"United Kingdom","Lincolnshire",53.3968736,-0.7739577
"18","Bardney",15,"United Kingdom","Lincolnshire",53.2105265,-0.3245785
"19","Bicker",15,"United Kingdom","Lincolnshire",52.9212336,-0.1798179
"20","Donington in Holland",15,"United Kingdom","Lincolnshire",NA,NA
"21","Bourne",14,"United Kingdom","Lincolnshire",52.7682148,-0.3771217
"22","Skirbeck",14,"United Kingdom","Lincolnshire",52.9691289,-0.0084822
"23","Holbeach",13,"United Kingdom","Lincolnshire",52.80421,0.0180043
"24","Tathwell",13,"United Kingdom","Lincolnshire",53.3277316,-0.0183869
"25","Washingborough",12,"United Kingdom","Lincolnshire",53.2223092,-0.4734512
"26","Donington",11,"United Kingdom","Lincolnshire",52.9046401,-0.206098
"27","Horbling",11,"United Kingdom","Lincolnshire",52.9038266,-0.3375522
"28","Scothem",11,"United Kingdom","Lincolnshire",NA,NA
"29","Denton",10,"United Kingdom","Lincolnshire",52.8835894,-0.711023
"30","Fishtoft",10,"United Kingdom","Lincolnshire",52.9618836,0.0269015
"31","Friskney",10,"United Kingdom","Lincolnshire",53.0754153,0.1795964
"32","Harmston",10,"United Kingdom","Lincolnshire",53.1485656,-0.547871
"33","Honington",10,"United Kingdom","Lincolnshire",52.9774392,-0.5949147
"34","Morton by Bourne",10,"United Kingdom","Lincolnshire",NA,NA
"35","Perth",10,"United Kingdom","Lincolnshire",NA,NA
"36","Spanby",10,"United Kingdom","Lincolnshire",52.929262,-0.3737087
"37","Sutterton",10,"United Kingdom","Lincolnshire",52.9029627,-0.0904811
"38","Market Deeping",9,"United Kingdom","Lincolnshire",52.6769366,-0.3149877
"39","Searby",9,"United Kingdom","Lincolnshire",53.5381296,-0.3845898
"40","Wrangle",9,"United Kingdom","Lincolnshire",53.0378725,0.1247633
"41","Fiskerton",8,"United Kingdom","Lincolnshire",53.235737,-0.4279668
"42","Gosberton",8,"United Kingdom","Lincolnshire",52.869059,-0.161089
"43","Leake",8,"United Kingdom","Lincolnshire",53.0311795,0.0969849
"44","Long Bennington",8,"United Kingdom","Lincolnshire",52.9920803,-0.7569752
"45","Quadring",8,"United Kingdom","Lincolnshire",52.8820823,-0.1836923
"46","Tydd St Mary",8,"United Kingdom","Lincolnshire",52.7456824,0.131329
"47","Ulceby",8,"United Kingdom","Lincolnshire",53.6164259,-0.329683918050209
"48","Wigtoft",8,"United Kingdom","Lincolnshire",52.9083331,-0.1239868
"49","Binbrook",7,"United Kingdom","Lincolnshire",53.4290439,-0.179191
"50","Brauncewell",7,"United Kingdom","Lincolnshire",53.0557703,-0.489743
"51","Corby",7,"United Kingdom","Lincolnshire",52.8133953,-0.519641
"52","Pinchbeck",7,"United Kingdom","Lincolnshire",52.8136925,-0.1626841
"53","Rauceby",7,"United Kingdom","Lincolnshire",52.9966735,-0.4701711
"54","Richmond",7,"United Kingdom","Lincolnshire",53.2692475,-0.4630387
"55","Sibsey",7,"United Kingdom","Lincolnshire",53.0379996,0.0166928
"56","Swaton",7,"United Kingdom","Lincolnshire",52.9246359,-0.316716
"57","Torksey",7,"United Kingdom","Lincolnshire",53.3002756,-0.7448882
"58","Waddington",7,"United Kingdom","Lincolnshire",53.1672819,-0.5390813
"59","Aveland",6,"United Kingdom","Lincolnshire",NA,NA
"60","Bassingham",6,"United Kingdom","Lincolnshire",53.128616,-0.6406939
"61","Baston",6,"United Kingdom","Lincolnshire",52.7109591,-0.3564029
"62","Belton",6,"United Kingdom","Lincolnshire",52.9458483,-0.6170959
"63","Burton on Stather",6,"United Kingdom","Lincolnshire",NA,NA
"64","Dunholme",6,"United Kingdom","Lincolnshire",NA,NA
"65","Frampton",6,"United Kingdom","Lincolnshire",52.934228,-0.0321117
"66","Great or Little Hale",6,"United Kingdom","Lincolnshire",NA,NA
"67","Haconby",6,"United Kingdom","Lincolnshire",52.8144993,-0.3617334
"68","Kirkstead",6,"United Kingdom","Lincolnshire",53.1401097,-0.2168619
"69","London",6,"United Kingdom","Lincolnshire",53.254886,-0.0025903
"70","Mablethorpe",6,"United Kingdom","Lincolnshire",53.3408271,0.2606772
"71","Rippingale",6,"United Kingdom","Lincolnshire",52.8381603,-0.3696044
"72","Scotland",6,"United Kingdom","Lincolnshire",52.8609703,-0.5098637
"73","Scottlethorpe",6,"United Kingdom","Lincolnshire",52.7759376,-0.4410192
"74","Surfleet",6,"United Kingdom","Lincolnshire",52.8351289,-0.1426897
"75","Amice",5,"United Kingdom","Lincolnshire",NA,NA
"76","Belchford",5,"United Kingdom","Lincolnshire",53.2607735,-0.0628264
"77","Burton",5,"United Kingdom","Lincolnshire",53.2605063,-0.562336
"78","Caistor",5,"United Kingdom","Lincolnshire",53.4959171,-0.3124269
"79","Crowle",5,"United Kingdom","Lincolnshire",53.6078121,-0.832644
"80","Ewerby",5,"United Kingdom","Lincolnshire",53.0122705,-0.329662
"81","Fleet",5,"United Kingdom","Lincolnshire",52.7934253,0.0581494
"82","Great Limber",5,"United Kingdom","Lincolnshire",53.5621956,-0.2900625
"83","Great or Little Limber",5,"United Kingdom","Lincolnshire",NA,NA
"84","Keddington",5,"United Kingdom","Lincolnshire",53.3773844,0.021885
"85","Orby",5,"United Kingdom","Lincolnshire",53.1819232,0.2291969
"86","Partney",5,"United Kingdom","Lincolnshire",53.1937563,0.1097321
"87","Ropsley",5,"United Kingdom","Lincolnshire",52.8972933,-0.5255596
"88","Saltfleet Haven",5,"United Kingdom","Lincolnshire",NA,NA
"89","South Ormsby",5,"United Kingdom","Lincolnshire",53.2564228,0.0519777
"90","Welby",5,"United Kingdom","Lincolnshire",52.9335215,-0.550761
"91","Wilsford",5,"United Kingdom","Lincolnshire",52.9754322,-0.5051487
"92","Wyberton",5,"United Kingdom","Lincolnshire",52.9544795,-0.0411564
"93","Billingborough",4,"United Kingdom","Lincolnshire",52.8938586,-0.3409855
"94","Bridgend",4,"United Kingdom","Lincolnshire",NA,NA
"95","Burton ?Coggles",4,"United Kingdom","Lincolnshire",52.820533,-0.5481757
"96","Canwick",4,"United Kingdom","Lincolnshire",53.2151511,-0.5220989
"97","Claythorpe",4,"United Kingdom","Lincolnshire",53.2898536,0.1196246
"98","Corringham",4,"United Kingdom","Lincolnshire",53.412052,-0.6916524
"99","Edenham",4,"United Kingdom","Lincolnshire",52.7838765,-0.4265173
"100","Garthorpe",4,"United Kingdom","Lincolnshire",53.6609884,-0.7185008
"101","Gedney",4,"United Kingdom","Lincolnshire",52.7980271,0.081399
"102","Grayingham",4,"United Kingdom","Lincolnshire",53.4542833,-0.5935621
"103","Great Ponton",4,"United Kingdom","Lincolnshire",52.8630742,-0.6261511
"104","Greatford",4,"United Kingdom","Lincolnshire",52.6946463,-0.392001
"105","Grimsthorpe",4,"United Kingdom","Lincolnshire",52.7936863,-0.4490054
"106","Hainton",4,"United Kingdom","Lincolnshire",53.3443385,-0.225105
"107","Kirton",4,"United Kingdom","Lincolnshire",52.9283453,-0.0578772
"108","Langtoft",4,"United Kingdom","Lincolnshire",52.6989859,-0.3395541
"109","Leasingham",4,"United Kingdom","Lincolnshire",53.0260911,-0.4249358
"110","Leverton",4,"United Kingdom","Lincolnshire",53.0069137,0.0840916
"111","LINCOLN",4,"United Kingdom","Lincolnshire",53.2336301,-0.5392172
"112","Moulton",4,"United Kingdom","Lincolnshire",52.7976255,-0.0633179
"113","Pilham",4,"United Kingdom","Lincolnshire",53.4346784,-0.7022331
"114","Roxby",4,"United Kingdom","Lincolnshire",53.6415111,-0.6084773
"115","Ruskington",4,"United Kingdom","Lincolnshire",53.0451565,-0.396665290012613
"116","Saxilby",4,"United Kingdom","Lincolnshire",53.27125095,-0.663678501054071
"117","Stainton le Vale",4,"United Kingdom","Lincolnshire",53.4328464,-0.2339688
"118","Stow St Mary",4,"United Kingdom","Lincolnshire",NA,NA
"119","Sturton",4,"United Kingdom","Lincolnshire",53.2732248,-0.1792262
"120","Swayfield",4,"United Kingdom","Lincolnshire",52.7937315,-0.5323912
"121","Wainfleet",4,"United Kingdom","Lincolnshire",53.1074468,0.2369499
"122","West Riding",4,"United Kingdom","Lincolnshire",NA,NA
"123","Anwick",3,"United Kingdom","Lincolnshire",53.0401246,-0.3391277
"124","Aslackby",3,"United Kingdom","Lincolnshire",52.8599151,-0.3907678
"125","Beelsby",3,"United Kingdom","Lincolnshire",53.499127,-0.1824549
"126","Belvoir",3,"United Kingdom","Lincolnshire",52.9636218,-0.1816271
"127","Blankney",3,"United Kingdom","Lincolnshire",53.1287092,-0.4054115
"128","Blyton",3,"United Kingdom","Lincolnshire",53.4428055,-0.7180788
"129","Bullington",3,"United Kingdom","Lincolnshire",53.2869449,-0.3603398
"130","Burwell",3,"United Kingdom","Lincolnshire",53.2953959,0.031517
"131","Caenby",3,"United Kingdom","Lincolnshire",53.393398,-0.4966098
"132","Dordrecht",3,"United Kingdom","Lincolnshire",NA,NA
"133","Dorrington",3,"United Kingdom","Lincolnshire",53.0623777,-0.3872865
"134","Dunsby",3,"United Kingdom","Lincolnshire",52.8279012,-0.3593942
"135","East Barkwith",3,"United Kingdom","Lincolnshire",53.3172997,-0.2475288
"136","Elsham",3,"United Kingdom","Lincolnshire",53.596952,-0.4378228
"137","England",3,"United Kingdom","Lincolnshire",52.7869183,-0.0908958
"138","Farlesthorpe",3,"United Kingdom","Lincolnshire",53.2442611,0.2096452
"139","Fordington",3,"United Kingdom","Lincolnshire",53.2221653,0.1228997
"140","Frieston",3,"United Kingdom","Lincolnshire",53.0192727,-0.6005886
"141","Fulbeck",3,"United Kingdom","Lincolnshire",53.0417943,-0.5874992
"142","Gonerby",3,"United Kingdom","Lincolnshire",52.9351023,-0.6664378
"143","Harpswell",3,"United Kingdom","Lincolnshire",53.3991893,-0.5946262
"144","Haverholme",3,"United Kingdom","Lincolnshire",53.0310939,-0.3474296
"145","Homcastle",3,"United Kingdom","Lincolnshire",NA,NA
"146","Ingleby",3,"United Kingdom","Lincolnshire",53.2909611,-0.6631374
"147","Kirton in Holland",3,"United Kingdom","Lincolnshire",NA,NA
"148","Laughterton",3,"United Kingdom","Lincolnshire",53.2739269,-0.7429197
"149","Linwood [near Market Rasen]",3,"United Kingdom","Lincolnshire",NA,NA
"150","Little Limber",3,"United Kingdom","Lincolnshire",53.578024,-0.3032603
"151","Londonthorpe",3,"United Kingdom","Lincolnshire",52.93073255,-0.582077711439052
"152","Louthesk",3,"United Kingdom","Lincolnshire",NA,NA
"153","Martin",3,"United Kingdom","Lincolnshire",53.1253109,-0.3254251
"154","Marton",3,"United Kingdom","Lincolnshire",53.327438,-0.7395434
"155","Mere",3,"United Kingdom","Lincolnshire",NA,NA
"156","Ness",3,"United Kingdom","Lincolnshire",53.6933653,-0.4697568
"157","Newark",3,"United Kingdom","Lincolnshire",NA,NA
"158","Newport",3,"United Kingdom","Lincolnshire",NA,NA
"159","Newton by Toft",3,"United Kingdom","Lincolnshire",53.3723606,-0.4221463
"160","Northorpe",3,"United Kingdom","Lincolnshire",52.7444528,-0.374162
"161","Nottingham",3,"United Kingdom","Lincolnshire",NA,NA
"162","Scothern",3,"United Kingdom","Lincolnshire",53.2841467,-0.4488097
"163","Scredington",3,"United Kingdom","Lincolnshire",52.9509886,-0.3722643
"164","Sedgebrook",3,"United Kingdom","Lincolnshire",52.9320924,-0.7270434
"165","Somercotes",3,"United Kingdom","Lincolnshire",53.4471931,0.1390434
"166","South Riding",3,"United Kingdom","Lincolnshire",NA,NA
"167","Stoke Rochford",3,"United Kingdom","Lincolnshire",52.8415313,-0.639201580206732
"168","Waddingham",3,"United Kingdom","Lincolnshire",53.4533093,-0.5194654
"169","Wellingore",3,"United Kingdom","Lincolnshire",53.0987094,-0.5324854
"170","Westminster",3,"United Kingdom","Lincolnshire",NA,NA
"171","Wisbech",3,"United Kingdom","Lincolnshire",NA,NA
"172","Woolsthorpe",3,"United Kingdom","Lincolnshire",52.8096267,-0.6322203
"173","Wootton",3,"United Kingdom","Lincolnshire",53.629858,-0.3574007
"174","?South Stoke",2,"United Kingdom","Lincolnshire",52.8363587,-0.6350318
"175","Aisby",2,"United Kingdom","Lincolnshire",52.9371933,-0.4954254
"176","Aisthorpe",2,"United Kingdom","Lincolnshire",53.31097,-0.5795434
"177","Allington",2,"United Kingdom","Lincolnshire",52.9529688,-0.7242715
"178","Amcotts",2,"United Kingdom","Lincolnshire",53.6218389,-0.733848670821293
"179","Asgarby",2,"United Kingdom","Lincolnshire",52.99365095,-0.339265323400494
"180","Aswarby",2,"United Kingdom","Lincolnshire",52.945766,-0.4144227
"181","Authorpe",2,"United Kingdom","Lincolnshire",53.3062696,0.0996031
"182","Barkston",2,"United Kingdom","Lincolnshire",52.9648418,-0.6153062
"183","Barlings",2,"United Kingdom","Lincolnshire",53.2589977,-0.3896461
"184","Barrowby",2,"United Kingdom","Lincolnshire",52.9161674,-0.6887849
"185","Beesby",2,"United Kingdom","Lincolnshire",53.2984529,0.1951147
"186","Beltisloe",2,"United Kingdom","Lincolnshire",NA,NA
"187","Benniworth",2,"United Kingdom","Lincolnshire",53.3199512,-0.1872422
"188","Bilsby",2,"United Kingdom","Lincolnshire",53.2653627,0.2030939
"189","Boothby Pagnell",2,"United Kingdom","Lincolnshire",52.866846,-0.5592875
"190","Brampton",2,"United Kingdom","Lincolnshire",53.3060419,-0.730562
"191","Branston",2,"United Kingdom","Lincolnshire",53.193893,-0.4700913
"192","Burton ?Pedwardine",2,"United Kingdom","Lincolnshire",52.96567525,-0.335464768690595
"193","Burton Coggles",2,"United Kingdom","Lincolnshire",52.820533,-0.5481757
"194","Cabourn",2,"United Kingdom","Lincolnshire",NA,NA
"195","Cadney",2,"United Kingdom","Lincolnshire",53.5177622,-0.4684998
"196","Calcethorpe",2,"United Kingdom","Lincolnshire",53.396878,-0.121178982485688
"197","Carlby",2,"United Kingdom","Lincolnshire",52.7139694,-0.4473501
"198","Cherry Willingham",2,"United Kingdom","Lincolnshire",53.2391784,-0.4555835
"199","Colsterworth",2,"United Kingdom","Lincolnshire",52.8065684,-0.6190473
"200","Covenham",2,"United Kingdom","Lincolnshire",53.4288994,0.0157257
"201","Cranwell",2,"United Kingdom","Lincolnshire",53.0375651,-0.4629025
"202","Cumberworth",2,"United Kingdom","Lincolnshire",53.2372003,0.2549394
"203","Digby",2,"United Kingdom","Lincolnshire",53.0804317,-0.3863599
"204","Dowsby",2,"United Kingdom","Lincolnshire",52.8517971,-0.3480069
"205","East Stockwith",2,"United Kingdom","Lincolnshire",53.4420936,-0.8127148
"206","Eastgate in the suburb of Lincoln",2,"United Kingdom","Lincolnshire",NA,NA
"207","Fen",2,"United Kingdom","Lincolnshire",53.1310505,-0.088639
"208","Fillingham",2,"United Kingdom","Lincolnshire",53.3608972,-0.5787147
"209","Flaxwell",2,"United Kingdom","Lincolnshire",NA,NA
"210","France",2,"United Kingdom","Lincolnshire",NA,NA
"211","Glentham",2,"United Kingdom","Lincolnshire",53.4025425,-0.4945267
"212","Glentworth",2,"United Kingdom","Lincolnshire",53.3814124,-0.5795049
"213","Great Carlton",2,"United Kingdom","Lincolnshire",53.3453792,0.1177452
"214","Great Hale",2,"United Kingdom","Lincolnshire",52.9716881,-0.2898672
"215","Great or Little Cotes",2,"United Kingdom","Lincolnshire",NA,NA
"216","Halstead",2,"United Kingdom","Lincolnshire",53.1807502,-0.2245062
"217","Halton",2,"United Kingdom","Lincolnshire",53.1645304,0.117023
"218","Hannah",2,"United Kingdom","Lincolnshire",53.2886995,0.2497993
"219","Harlaxton",2,"United Kingdom","Lincolnshire",52.8840417,-0.686898
"220","Hatton",2,"United Kingdom","Lincolnshire",53.2753416,-0.235003
"221","Hawerby",2,"United Kingdom","Lincolnshire",53.4602674,-0.1014344
"222","Heapham",2,"United Kingdom","Lincolnshire",53.3847321,-0.6841142
"223","Hemingby",2,"United Kingdom","Lincolnshire",53.2534359,-0.1461344
"224","Hemswell",2,"United Kingdom","Lincolnshire",53.4075994,-0.6015476
"225","Holy Trinity parish, Lincoln",2,"United Kingdom","Lincolnshire",NA,NA
"226","Hougham",2,"United Kingdom","Lincolnshire",52.9894994,-0.6784442
"227","Howell",2,"United Kingdom","Lincolnshire",53.00117575,-0.308986625498694
"228","Huttoft",2,"United Kingdom","Lincolnshire",53.2636731,0.2662473
"229","Ingoldsby",2,"United Kingdom","Lincolnshire",52.8592595,-0.4993236
"230","Jordan",2,"United Kingdom","Lincolnshire",NA,NA
"231","Keelby",2,"United Kingdom","Lincolnshire",53.5746924,-0.2438955
"232","Kelstem",2,"United Kingdom","Lincolnshire",NA,NA
"233","Killingholme",2,"United Kingdom","Lincolnshire",53.6300423,-0.2642896
"234","Kirkby Laythorpe",2,"United Kingdom","Lincolnshire",NA,NA
"235","Kirton in Lindsey",2,"United Kingdom","Lincolnshire",53.4762984,-0.590984
"236","Lancaster",2,"United Kingdom","Lincolnshire",53.3934073,-0.5732945
"237","Langton",2,"United Kingdom","Lincolnshire",53.2020385,-0.151491
"238","Legsby",2,"United Kingdom","Lincolnshire",53.3561942,-0.2936551
"239","Leicester",2,"United Kingdom","Lincolnshire",NA,NA
"240","Lenton",2,"United Kingdom","Lincolnshire",52.8614954,-0.4771255
"241","Little Ponton",2,"United Kingdom","Lincolnshire",52.8781442,-0.6266418
"242","Louth Park",2,"United Kingdom","Lincolnshire",53.3675163,-0.0022381
"243","Manley",2,"United Kingdom","Lincolnshire",NA,NA
"244","Markby",2,"United Kingdom","Lincolnshire",53.2863833,0.2278697
"245","Marketcross",2,"United Kingdom","Lincolnshire",NA,NA
"246","Mumby",2,"United Kingdom","Lincolnshire",53.2438028,0.2689523
"247","Normanby",2,"United Kingdom","Lincolnshire",53.6398884,-0.6676919
"248","North Kelsey",2,"United Kingdom","Lincolnshire",53.5022218,-0.4276514
"249","Old Sleaford",2,"United Kingdom","Lincolnshire",52.9984193,-0.4094529
"250","Oseby",2,"United Kingdom","Lincolnshire",NA,NA
"251","Ouseby",2,"United Kingdom","Lincolnshire",NA,NA
"252","Owston",2,"United Kingdom","Lincolnshire",53.4926549,-0.780015
"253","Saltfleetby",2,"United Kingdom","Lincolnshire",53.38894225,0.172208667973892
"254","Silk Willoughby",2,"United Kingdom","Lincolnshire",52.9732279,-0.4278724
"255","Skegness",2,"United Kingdom","Lincolnshire",53.1437506,0.3428958
"256","Sloothby",2,"United Kingdom","Lincolnshire",53.2140761,0.232283
"257","Somerby",2,"United Kingdom","Lincolnshire",53.5454788,-0.3990781
"258","South Owersby",2,"United Kingdom","Lincolnshire",53.4283746,-0.4015392
"259","South Stoke",2,"United Kingdom","Lincolnshire",52.8363587,-0.6350318
"260","Spilsby",2,"United Kingdom","Lincolnshire",53.1734361,0.094623
"261","Springthorpe",2,"United Kingdom","Lincolnshire",53.3966831,-0.6837717
"262","St Augustine’s parish, Lincoln",2,"United Kingdom","Lincolnshire",NA,NA
"263","St Martin’s parish, Lincoln",2,"United Kingdom","Lincolnshire",NA,NA
"264","Stainfield [near Haconby]",2,"United Kingdom","Lincolnshire",NA,NA
"265","Stickford",2,"United Kingdom","Lincolnshire",53.1209768,0.0248635
"266","Stow",2,"United Kingdom","Lincolnshire",53.327436,-0.6758648
"267","Stragglethorpe",2,"United Kingdom","Lincolnshire",53.0601309,-0.6386443
"268","Stubton",2,"United Kingdom","Lincolnshire",53.0303771,-0.6986066
"269","Swinderby",2,"United Kingdom","Lincolnshire",53.1564532,-0.7033431
"270","Syston",2,"United Kingdom","Lincolnshire",52.9574708,-0.6186966
"271","Tallington",2,"United Kingdom","Lincolnshire",52.6595304,-0.3858311
"272","Thurlby [near Bourne]",2,"United Kingdom","Lincolnshire",NA,NA
"273","Usselby",2,"United Kingdom","Lincolnshire",53.4278876,-0.3525984
"274","Walpole",2,"United Kingdom","Lincolnshire",NA,NA
"275","West Deeping",2,"United Kingdom","Lincolnshire",52.6668064,-0.3600155
"276","Wilsthorpe",2,"United Kingdom","Lincolnshire",52.7102175,-0.3854239
"277","Winteringham",2,"United Kingdom","Lincolnshire",53.6878513,-0.590982
"278","Winthorpe",2,"United Kingdom","Lincolnshire",53.1657623,0.3346971
"279","Witham",2,"United Kingdom","Lincolnshire",52.9885658,-0.0324941
"280","Wold Newton",2,"United Kingdom","Lincolnshire",53.4517959,-0.1283258
"281","Worlaby",2,"United Kingdom","Lincolnshire",53.271685,0.0082827
"282","Wragby",2,"United Kingdom","Lincolnshire",53.287009,-0.3035517
"283","?King’s Lynn",1,"United Kingdom","Lincolnshire",NA,NA
"284","?Silk Willoughby",1,"United Kingdom","Lincolnshire",52.9732279,-0.4278724
"285","?West Deeping",1,"United Kingdom","Lincolnshire",52.6668064,-0.3600155
"286","[North] Willingham",1,"United Kingdom","Lincolnshire",NA,NA
"287","‘Pokemylne’ by Grantham",1,"United Kingdom","Lincolnshire",NA,NA
"288","‘Yorkeswald’",1,"United Kingdom","Lincolnshire",NA,NA
"289","Agnes",1,"United Kingdom","Lincolnshire",NA,NA
"290","Alford",1,"United Kingdom","Lincolnshire",53.2591409,0.1777346
"291","Algarkirk",1,"United Kingdom","Lincolnshire",52.8997182,-0.0795578
"292","Alice",1,"United Kingdom","Lincolnshire",NA,NA
"293","Alston",1,"United Kingdom","Lincolnshire",NA,NA
"294","Amabel",1,"United Kingdom","Lincolnshire",NA,NA
"295","Ancaster",1,"United Kingdom","Lincolnshire",52.9857374,-0.5345307
"296","Ashby",1,"United Kingdom","Lincolnshire",53.5642206,-0.6544905
"297","Asserby",1,"United Kingdom","Lincolnshire",53.2748851,0.2408191
"298","Aswardhurn",1,"United Kingdom","Lincolnshire",NA,NA
"299","at the priory",1,"United Kingdom","Lincolnshire",NA,NA
"300","Auboum",1,"United Kingdom","Lincolnshire",NA,NA
"301","Aunsby",1,"United Kingdom","Lincolnshire",52.9368545,-0.445664103819644
"302","Ayste",1,"United Kingdom","Lincolnshire",NA,NA
"303","Barkham",1,"United Kingdom","Lincolnshire",NA,NA
"304","Barnetby le Wold",1,"United Kingdom","Lincolnshire",53.5732788,-0.4023917
"305","Barnoldby le Beck",1,"United Kingdom","Lincolnshire",53.5114617,-0.1374487
"306","Barrow upon Humber",1,"United Kingdom","Lincolnshire",53.6766236,-0.3790538
"307","Barton upon Humber,",1,"United Kingdom","Lincolnshire",53.67357325,-0.442710043888241
"308","Beatrice",1,"United Kingdom","Lincolnshire",NA,NA
"309","Beaumont",1,"United Kingdom","Lincolnshire",NA,NA
"310","Bedfordshire",1,"United Kingdom","Lincolnshire",NA,NA
"311","Benni worth",1,"United Kingdom","Lincolnshire",NA,NA
"312","Berwick",1,"United Kingdom","Lincolnshire",NA,NA
"313","Billingborough by Brigg",1,"United Kingdom","Lincolnshire",NA,NA
"314","Bitchfield",1,"United Kingdom","Lincolnshire",52.8468229,-0.5339685
"315","Bitchfield Beccoyne",1,"United Kingdom","Lincolnshire",NA,NA
"316","Bloxholm",1,"United Kingdom","Lincolnshire",53.0699591,-0.4113665
"317","Blyborough",1,"United Kingdom","Lincolnshire",53.4382298,-0.5929338
"318","Bolingbroke",1,"United Kingdom","Lincolnshire",53.1651295,0.0188986
"319","Bonby",1,"United Kingdom","Lincolnshire",53.623487,-0.489370060869563
"320","Boothby Graffoe",1,"United Kingdom","Lincolnshire",53.1208644,-0.5298767
"321","Bordeaux",1,"United Kingdom","Lincolnshire",NA,NA
"322","Boultham",1,"United Kingdom","Lincolnshire",53.2139125,-0.5554491
"323","Braceborough",1,"United Kingdom","Lincolnshire",52.705869,-0.4020882
"324","Bracebridge",1,"United Kingdom","Lincolnshire",53.2027459,-0.554776
"325","Bradley",1,"United Kingdom","Lincolnshire",53.5417629,-0.1243661
"326","Brigg",1,"United Kingdom","Lincolnshire",53.5525329,-0.4896411
"327","Brughton",1,"United Kingdom","Lincolnshire",NA,NA
"328","Bucknall",1,"United Kingdom","Lincolnshire",53.2043098,-0.2477085
"329","Burgh ?le Marsh",1,"United Kingdom","Lincolnshire",53.1597591,0.2448684
"330","Burgh on Bain",1,"United Kingdom","Lincolnshire",53.3597575,-0.1646302
"331","Burringham",1,"United Kingdom","Lincolnshire",53.5698004,-0.72520267691773
"332","Burton [Pedwardine]",1,"United Kingdom","Lincolnshire",NA,NA
"333","Burton PCoggles",1,"United Kingdom","Lincolnshire",NA,NA
"334","Burton Pedwardine",1,"United Kingdom","Lincolnshire",52.96567525,-0.335464768690595
"335","Butterwick [near Boston]",1,"United Kingdom","Lincolnshire",NA,NA
"336","Bytham",1,"United Kingdom","Lincolnshire",52.754958,-0.5362353
"337","Callerton",1,"United Kingdom","Lincolnshire",NA,NA
"338","Calreton",1,"United Kingdom","Lincolnshire",NA,NA
"339","Candleshoe",1,"United Kingdom","Lincolnshire",NA,NA
"340","Canterbury",1,"United Kingdom","Lincolnshire",NA,NA
"341","Canwick by Lincoln",1,"United Kingdom","Lincolnshire",NA,NA
"342","Carleton",1,"United Kingdom","Lincolnshire",NA,NA
"343","Carlton",1,"United Kingdom","Lincolnshire",53.3474146,0.1005664
"344","Castle Bytham",1,"United Kingdom","Lincolnshire",52.754958,-0.5362353
"345","Chancery",1,"United Kingdom","Lincolnshire",NA,NA
"346","Cheshire",1,"United Kingdom","Lincolnshire",NA,NA
"347","Chester",1,"United Kingdom","Lincolnshire",53.5244118,-0.9314138
"348","Clasketgate",1,"United Kingdom","Lincolnshire",NA,NA
"349","Claypole",1,"United Kingdom","Lincolnshire",53.0315558,-0.7340555
"350","Clayworth",1,"United Kingdom","Lincolnshire",NA,NA
"351","Cockerington",1,"United Kingdom","Lincolnshire",53.3960108,0.0636455
"352","Cold or Potter Han worth",1,"United Kingdom","Lincolnshire",NA,NA
"353","Cold or Potter Hanworth",1,"United Kingdom","Lincolnshire",NA,NA
"354","Coleby",1,"United Kingdom","Lincolnshire",53.1328743,-0.5426358
"355","Coningsby",1,"United Kingdom","Lincolnshire",53.1056488,-0.1746758
"356","Conisholme",1,"United Kingdom","Lincolnshire",53.4386953,0.1083924
"357","Cor ringham",1,"United Kingdom","Lincolnshire",NA,NA
"358","Cornwall",1,"United Kingdom","Lincolnshire",NA,NA
"359","Counthorpe",1,"United Kingdom","Lincolnshire",52.7709138,-0.5124716
"360","Croft",1,"United Kingdom","Lincolnshire",53.1307519,0.2533976
"361","Crowland",1,"United Kingdom","Lincolnshire",52.675299,-0.1685608
"362","Croxton",1,"United Kingdom","Lincolnshire",53.5964791,-0.3483833
"363","DE",1,"United Kingdom","Lincolnshire",53.5841303,-0.6649323
"364","Deeping",1,"United Kingdom","Lincolnshire",52.6769366,-0.3149877
"365","Deeping ?St James",1,"United Kingdom","Lincolnshire",52.6725169,-0.3001694
"366","Deeping St James",1,"United Kingdom","Lincolnshire",52.6725169,-0.3001694
"367","Dembleby",1,"United Kingdom","Lincolnshire",52.9257384,-0.452724859080399
"368","Deopham",1,"United Kingdom","Lincolnshire",NA,NA
"369","Derby",1,"United Kingdom","Lincolnshire",NA,NA
"370","Doddington Pigot",1,"United Kingdom","Lincolnshire",NA,NA
"371","Dove",1,"United Kingdom","Lincolnshire",52.845468,-0.1956871
"372","Dunston",1,"United Kingdom","Lincolnshire",53.1531486,-0.4089097
"373","Eagle",1,"United Kingdom","Lincolnshire",53.1947029,-0.6883347
"374","East Kirkby by Bolingbroke",1,"United Kingdom","Lincolnshire",NA,NA
"375","East Markham",1,"United Kingdom","Lincolnshire",NA,NA
"376","East Stamford",1,"United Kingdom","Lincolnshire",52.6520552,-0.4804363
"377","East Torrington",1,"United Kingdom","Lincolnshire",53.3354802,-0.2774266
"378","Eastgate",1,"United Kingdom","Lincolnshire",52.7639358,-0.3635097
"379","Elloe",1,"United Kingdom","Lincolnshire",NA,NA
"380","Empingham",1,"United Kingdom","Lincolnshire",NA,NA
"381","Essington",1,"United Kingdom","Lincolnshire",NA,NA
"382","Eudes Ward of Wainfleet",1,"United Kingdom","Lincolnshire",NA,NA
"383","Evedon",1,"United Kingdom","Lincolnshire",53.0138026,-0.365892154495782
"384","Folkingham",1,"United Kingdom","Lincolnshire",52.8897079,-0.4085024
"385","Fotherby",1,"United Kingdom","Lincolnshire",53.4056722,-0.0213076
"386","Frieston [near Boston]",1,"United Kingdom","Lincolnshire",NA,NA
"387","Fulstow",1,"United Kingdom","Lincolnshire",53.4544582,-0.0030853
"388","Gaskryk",1,"United Kingdom","Lincolnshire",NA,NA
"389","Gate Burton",1,"United Kingdom","Lincolnshire",53.3351387,-0.7422838
"390","Gayton ?le Wold",1,"United Kingdom","Lincolnshire",53.3583327,-0.1415952
"391","Goxhill",1,"United Kingdom","Lincolnshire",53.6876552,-0.317360048443809
"392","Grainthorpe",1,"United Kingdom","Lincolnshire",53.4533854,0.0806053
"393","Great Grimsby",1,"United Kingdom","Lincolnshire",53.5677371,-0.0736289
"394","Grimoldby",1,"United Kingdom","Lincolnshire",53.3719357,0.0901237
"395","Hasculf",1,"United Kingdom","Lincolnshire",NA,NA
"396","Haugham",1,"United Kingdom","Lincolnshire",53.3137643,0.0041419
"397","Haydor",1,"United Kingdom","Lincolnshire",NA,NA
"398","Heckington",1,"United Kingdom","Lincolnshire",52.9816716,-0.299956
"399","Heighington",1,"United Kingdom","Lincolnshire",53.2115662,-0.453426134665031
"400","Helpringham",1,"United Kingdom","Lincolnshire",52.9516942,-0.3062884
"401","High Toynton",1,"United Kingdom","Lincolnshire",53.2107419,-0.0791223
"402","Hinton",1,"United Kingdom","Lincolnshire",NA,NA
"403","Holbeach Hum",1,"United Kingdom","Lincolnshire",NA,NA
"404","Holme",1,"United Kingdom","Lincolnshire",53.5517607,-0.6065696
"405","Holme Spinney by Sudbrooke",1,"United Kingdom","Lincolnshire",NA,NA
"406","Holme Spinney by Sudbrooke [near Lincoln]",1,"United Kingdom","Lincolnshire",NA,NA
"407","Holywell",1,"United Kingdom","Lincolnshire",52.7346168,-0.51837
"408","Horncastle",1,"United Kingdom","Lincolnshire",53.2088239,-0.1171111
"409","Hough on the Hill",1,"United Kingdom","Lincolnshire",53.0069848,-0.6243176
"410","Houghton",1,"United Kingdom","Lincolnshire",NA,NA
"411","Howsham",1,"United Kingdom","Lincolnshire",53.5242541,-0.4233202
"412","Humber river",1,"United Kingdom","Lincolnshire",53.67357325,-0.442710043888241
"413","Hundon",1,"United Kingdom","Lincolnshire",NA,NA
"414","Hykeham",1,"United Kingdom","Lincolnshire",53.1870106,-0.5877503
"415","Ingham",1,"United Kingdom","Lincolnshire",53.3398765,-0.5775001
"416","Ingoldmells",1,"United Kingdom","Lincolnshire",53.1932406,0.3346566
"417","Kettlethorpe",1,"United Kingdom","Lincolnshire",53.2719547,-0.7300665
"418","King’s Lynn",1,"United Kingdom","Lincolnshire",NA,NA
"419","Kingthorpe",1,"United Kingdom","Lincolnshire",53.2603487,-0.3081152
"420","Kinnard’s Ferry",1,"United Kingdom","Lincolnshire",NA,NA
"421","Kirkby",1,"United Kingdom","Lincolnshire",53.4208387,-0.4009191
"422","Kirton [near Boston]",1,"United Kingdom","Lincolnshire",NA,NA
"423","Kyrkyat",1,"United Kingdom","Lincolnshire",NA,NA
"424","Laceby",1,"United Kingdom","Lincolnshire",53.5418215,-0.1704012
"425","Langoe",1,"United Kingdom","Lincolnshire",NA,NA
"426","Langton by Wragby",1,"United Kingdom","Lincolnshire",53.2775614,-0.2763743
"427","Langworth",1,"United Kingdom","Lincolnshire",53.2745729,-0.4074709
"428","Lawrence",1,"United Kingdom","Lincolnshire",NA,NA
"429","Lawress",1,"United Kingdom","Lincolnshire",NA,NA
"430","Leadenham",1,"United Kingdom","Lincolnshire",53.0589415,-0.5819982
"431","Lee",1,"United Kingdom","Lincolnshire",53.262178,0.2144573
"432","Legboume",1,"United Kingdom","Lincolnshire",NA,NA
"433","Lin wood",1,"United Kingdom","Lincolnshire",NA,NA
"434","Lincoln castle",1,"United Kingdom","Lincolnshire",NA,NA
"435","Little Bytham",1,"United Kingdom","Lincolnshire",52.7509282,-0.4985459
"436","Little Carlton",1,"United Kingdom","Lincolnshire",53.3474146,0.1005664
"437","Lothend",1,"United Kingdom","Lincolnshire",NA,NA
"438","Ludborough",1,"United Kingdom","Lincolnshire",53.4406964,-0.0511011
"439","Ludford",1,"United Kingdom","Lincolnshire",53.3869534,-0.185227684607051
"440","Maltby le Marsh",1,"United Kingdom","Lincolnshire",53.3118619,0.2011065
"441","Manby",1,"United Kingdom","Lincolnshire",53.3616463,0.0968488
"442","manor of William Ermyn",1,"United Kingdom","Lincolnshire",NA,NA
"443","Manthorpe",1,"United Kingdom","Lincolnshire",52.7313039,-0.4160607
"444","Mareham",1,"United Kingdom","Lincolnshire",53.1310505,-0.088639
"445","Market Rasen",1,"United Kingdom","Lincolnshire",53.3874028,-0.336659
"446","Market Stainton",1,"United Kingdom","Lincolnshire",53.303131,-0.1588187
"447","Markham Clinton",1,"United Kingdom","Lincolnshire",NA,NA
"448","marsh of Lea",1,"United Kingdom","Lincolnshire",NA,NA
"449","Martinmas",1,"United Kingdom","Lincolnshire",NA,NA
"450","Maud",1,"United Kingdom","Lincolnshire",NA,NA
"451","Mendham",1,"United Kingdom","Lincolnshire",NA,NA
"452","Metheringham",1,"United Kingdom","Lincolnshire",53.1403716,-0.409896852408116
"453","Middle Rasen",1,"United Kingdom","Lincolnshire",53.3885262,-0.3621677
"454","Moorby",1,"United Kingdom","Lincolnshire",53.1587947,-0.0677066
"455","Morton [near Gainsborough]",1,"United Kingdom","Lincolnshire",NA,NA
"456","Morton by Lincoln",1,"United Kingdom","Lincolnshire",NA,NA
"457","Navenby",1,"United Kingdom","Lincolnshire",53.1066184,-0.5239171
"458","Nettleham",1,"United Kingdom","Lincolnshire",53.2661301,-0.4861549
"459","Newland",1,"United Kingdom","Lincolnshire",NA,NA
"460","Newton",1,"United Kingdom","Lincolnshire",52.9127121,-0.445868462838902
"461","Newton le Wold",1,"United Kingdom","Lincolnshire",53.4517959,-0.1283258
"462","Nocton",1,"United Kingdom","Lincolnshire",53.1666729,-0.4141536
"463","North",1,"United Kingdom","Lincolnshire",53.5841303,-0.6649323
"464","North or South Catesby",1,"United Kingdom","Lincolnshire",NA,NA
"465","North Riding",1,"United Kingdom","Lincolnshire",NA,NA
"466","North Thoresby",1,"United Kingdom","Lincolnshire",53.4670883,-0.0554188
"467","Norton Disney",1,"United Kingdom","Lincolnshire",53.1218196,-0.67353
"468","Osboumby",1,"United Kingdom","Lincolnshire",NA,NA
"469","Osbournby",1,"United Kingdom","Lincolnshire",52.9305401,-0.4105418
"470","Osgodby",1,"United Kingdom","Lincolnshire",52.840695,-0.4812374
"471","Owmby",1,"United Kingdom","Lincolnshire",53.3745771,-0.4969882
"472","Oxford",1,"United Kingdom","Lincolnshire",53.6988942,-0.3789921
"473","Panton",1,"United Kingdom","Lincolnshire",53.2945863,-0.2373409
"474","Pembroke",1,"United Kingdom","Lincolnshire",NA,NA
"475","Pentecost",1,"United Kingdom","Lincolnshire",NA,NA
"476","Peterborough",1,"United Kingdom","Lincolnshire",NA,NA
"477","Pickworth",1,"United Kingdom","Lincolnshire",52.8896933,-0.4506361
"478","Pointon",1,"United Kingdom","Lincolnshire",52.8726526,-0.3429841
"479","Potter Hanworth",1,"United Kingdom","Lincolnshire",53.1831353,-0.4228439
"480","Pouchere",1,"United Kingdom","Lincolnshire",NA,NA
"481","Pykhale",1,"United Kingdom","Lincolnshire",NA,NA
"482","Quarrington",1,"United Kingdom","Lincolnshire",NA,NA
"483","Raithby",1,"United Kingdom","Lincolnshire",53.1839138,0.0529871
"484","Rasen",1,"United Kingdom","Lincolnshire",53.3874028,-0.336659
"485","Reepham",1,"United Kingdom","Lincolnshire",53.2512241,-0.444776
"486","Retford",1,"United Kingdom","Lincolnshire",NA,NA
"487","Revesby",1,"United Kingdom","Lincolnshire",53.1340774,-0.0597203
"488","Robert de Silkeston",1,"United Kingdom","Lincolnshire",NA,NA
"489","Rowston",1,"United Kingdom","Lincolnshire",53.0935185,-0.3823336
"490","Sapperton",1,"United Kingdom","Lincolnshire",52.8932628,-0.485111
"491","Scampton",1,"United Kingdom","Lincolnshire",53.3021398,-0.5752487
"492","Scartho",1,"United Kingdom","Lincolnshire",53.5374084,-0.086356
"493","Scawby",1,"United Kingdom","Lincolnshire",53.5372224,-0.5406594
"494","Scodand",1,"United Kingdom","Lincolnshire",NA,NA
"495","Scopwick",1,"United Kingdom","Lincolnshire",53.1090921,-0.4041522
"496","Scroop",1,"United Kingdom","Lincolnshire",52.9943722,-0.5869555
"497","Scyrtes of Glentham",1,"United Kingdom","Lincolnshire",NA,NA
"498","Shelford",1,"United Kingdom","Lincolnshire",NA,NA
"499","Skellingthorpe",1,"United Kingdom","Lincolnshire",53.2377485,-0.614846567673043
"500","Skendleby",1,"United Kingdom","Lincolnshire",53.2042114,0.1454886
"501","Sleaford Castle",1,"United Kingdom","Lincolnshire",NA,NA
"502","Snarford",1,"United Kingdom","Lincolnshire",53.3267957,-0.4221105
"503","Somerby [near Bridgend] by Caistor",1,"United Kingdom","Lincolnshire",NA,NA
"504","South Hykeham",1,"United Kingdom","Lincolnshire",53.1696615,-0.5985305
"505","South Kyme",1,"United Kingdom","Lincolnshire",53.0315636,-0.2513272
"506","Southorpe",1,"United Kingdom","Lincolnshire",53.4468566,-0.6678174
"507","St",1,"United Kingdom","Lincolnshire",52.7210995,-0.5221826
"508","St Augustine",1,"United Kingdom","Lincolnshire",NA,NA
"509","St Benedict",1,"United Kingdom","Lincolnshire",NA,NA
"510","St John’s, Newport, Lincoln",1,"United Kingdom","Lincolnshire",NA,NA
"511","St John’s, Stamford",1,"United Kingdom","Lincolnshire",NA,NA
"512","St Lawrence’s parish",1,"United Kingdom","Lincolnshire",NA,NA
"513","St Lawrence’s parish, Lincoln",1,"United Kingdom","Lincolnshire",NA,NA
"514","St Mary’s parish, Wigford, Lincoln",1,"United Kingdom","Lincolnshire",NA,NA
"515","St Peter",1,"United Kingdom","Lincolnshire",53.1472991,0.1000436
"516","St Swithin",1,"United Kingdom","Lincolnshire",NA,NA
"517","St Swithin’s parish, Lincoln.",1,"United Kingdom","Lincolnshire",NA,NA
"518","Stainton",1,"United Kingdom","Lincolnshire",53.2860044,-0.4076008
"519","Stainton ?by Langworth",1,"United Kingdom","Lincolnshire",53.2860044,-0.4076008
"520","Stainton by Langworth",1,"United Kingdom","Lincolnshire",53.2860044,-0.4076008
"521","Stallingborough",1,"United Kingdom","Lincolnshire",53.5871929,-0.1855069
"522","Stapleford",1,"United Kingdom","Lincolnshire",53.10910405,-0.682788601557984
"523","Stow Park",1,"United Kingdom","Lincolnshire",53.3210068,-0.6998134
"524","Stow St 1 Damages and fees struck through. 2 Damages struck through. 121 Mary",1,"United Kingdom","Lincolnshire",NA,NA
"525","Sturton by Stow St Mary",1,"United Kingdom","Lincolnshire",NA,NA
"526","Sudbrooke",1,"United Kingdom","Lincolnshire",53.2683884,-0.4465052
"527","Swaby",1,"United Kingdom","Lincolnshire",53.27655675,0.0783720861326899
"528","Swallow",1,"United Kingdom","Lincolnshire",53.5102865,-0.2263426
"529","Swinstead",1,"United Kingdom","Lincolnshire",52.7905915,-0.491407
"530","Tailington",1,"United Kingdom","Lincolnshire",NA,NA
"531","Tealby",1,"United Kingdom","Lincolnshire",53.40011065,-0.268916601124557
"532","Temple Bruer",1,"United Kingdom","Lincolnshire",53.0695446,-0.494459
"533","Tetford",1,"United Kingdom","Lincolnshire",53.251946,-0.0066612
"534","the church of St Peter’s at Gowt’s {‘Lincoln’') bridge",1,"United Kingdom","Lincolnshire",NA,NA
"535","the grange of Huberdhayth [in Scopwick]",1,"United Kingdom","Lincolnshire",NA,NA
"536","the Humber river",1,"United Kingdom","Lincolnshire",53.67357325,-0.442710043888241
"537","Thealby",1,"United Kingdom","Lincolnshire",53.6509066,-0.6480958
"538","Thorpe on the Hill",1,"United Kingdom","Lincolnshire",53.1793764,-0.6428738
"539","Thurlby",1,"United Kingdom","Lincolnshire",52.7387005,-0.3766037
"540","Thurlby [near Lincoln]",1,"United Kingdom","Lincolnshire",NA,NA
"541","Timberland",1,"United Kingdom","Lincolnshire",53.1115743,-0.327652
"542","Uffington",1,"United Kingdom","Lincolnshire",52.6574316,-0.4313242
"543","Ulceby [near Barton upon Humber] by Croxton",1,"United Kingdom","Lincolnshire",NA,NA
"544","Utterby",1,"United Kingdom","Lincolnshire",53.4212266,-0.0331194
"545","Valence",1,"United Kingdom","Lincolnshire",NA,NA
"546","Walesby",1,"United Kingdom","Lincolnshire",53.4162893,-0.2950299
"547","Walmsgate",1,"United Kingdom","Lincolnshire",53.2831293,0.0449961
"548","Waltham",1,"United Kingdom","Lincolnshire",53.515849,-0.0963777
"549","Welbourn",1,"United Kingdom","Lincolnshire",53.0742097,-0.558824400302107
"550","Welton le Marsh",1,"United Kingdom","Lincolnshire",53.1958774,0.2024433
"551","Welton le Wold",1,"United Kingdom","Lincolnshire",53.3681419,-0.0875199
"552","West Barkwith",1,"United Kingdom","Lincolnshire",53.3089438,-0.2612168
"553","West Rasen",1,"United Kingdom","Lincolnshire",53.3899466,-0.4031836
"554","West Wykeham",1,"United Kingdom","Lincolnshire",52.8191946,-0.1096407
"555","Westborough",1,"United Kingdom","Lincolnshire",52.9926368,-0.7333743
"556","Westfen",1,"United Kingdom","Lincolnshire",NA,NA
"557","Weston",1,"United Kingdom","Lincolnshire",52.8056758,-0.0865961
"558","Whitton by Burton on Stathe",1,"United Kingdom","Lincolnshire",NA,NA
"559","Wickenby",1,"United Kingdom","Lincolnshire",53.3234976,-0.3678494
"560","Willoughby",1,"United Kingdom","Lincolnshire",53.2246381,0.2007866
"561","Woltoftishill",1,"United Kingdom","Lincolnshire",NA,NA
"562","Wyham",1,"United Kingdom","Lincolnshire",53.4375684,-0.0781559
"563","Wymondham",1,"United Kingdom","Lincolnshire",NA,NA
"564","Wytham",1,"United Kingdom","Lincolnshire",NA,NA
"565","Yarburgh",1,"United Kingdom","Lincolnshire",53.4170967,0.0306739
"566","Yarmouth",1,"United Kingdom","Lincolnshire",NA,NA
"567","York",1,"United Kingdom","Lincolnshire",53.0784049,-0.1396847
